[
  {
    "tdlinx_number": "2063528",
    "store_name": "PITTSFIELD RESTAURANT",
    "store_number": "UNKNOWN",
    "address": "55 E WASHINGTON ST",
    "city": "CHICAGO",
    "state": "IL",
    "postal_cd": "606022103",
    "phone_no": "3126411806",
    "latitude": 41.8831,
    "longitude": -87.6259,
    "last_update": 201512,
    "high_impact": "N",
    "unsold_account": "N",
    "premise_type": "ON PREMISE",
    "trade_classification": "CASUAL DINING",
    "planning_group": "REGIONAL",
    "store_rank_wine": {
      "rank": 3,
      "delta": -21.3576,
      "depl_fytd": 1.496,
      "depl_pts_fytd": 8.976,
      "depl_l12_mth_ty": 1.496,
      "depl_pts_fytd_1ya": 30.3336
    }
    
  },
  {
    "tdlinx_number": "3982460",
    "store_name": "TONI PATISSERIE & CAFE",
    "store_number": "UNKNOWN",
    "address": "65 E WASHINGTON ST",
    "city": "CHICAGO",
    "state": "IL",
    "postal_cd": "606022101",
    "phone_no": "UNK",
    "latitude": 41.8831,
    "longitude": -87.6255,
    "last_update": 201512,
    "high_impact": "N",
    "unsold_account": "N",
    "premise_type": "ON PREMISE",
    "trade_classification": "CASUAL DINING",
    "planning_group": "REGIONAL",
    "store_rank_wine": {
      "rank": 3,
      "delta": -18.11,
      "depl_fytd": 0,
      "depl_pts_fytd": 0,
      "depl_l12_mth_ty": 0.12,
      "depl_pts_fytd_1ya": 18.11
    }
  },
  {
    "tdlinx_number": "1682480",
    "store_name": "HEAVEN ON SEVEN",
    "store_number": "UNKNOWN",
    "address": "111 N WABASH AVE",
    "city": "CHICAGO",
    "state": "IL",
    "postal_cd": "606021903",
    "phone_no": "3122636443",
    "latitude": 41.8836,
    "longitude": -87.6261,
    "last_update": 201512,
    "high_impact": "N",
    "unsold_account": "N",
    "premise_type": "ON PREMISE",
    "trade_classification": "CASUAL DINING",
    "planning_group": "REGIONAL",
    "store_rank_wine": {
      "rank": 1,
      "delta": 29.96,
      "depl_fytd": 6.52,
      "depl_pts_fytd": 29.96,
      "depl_l12_mth_ty": 6.52,
      "depl_pts_fytd_1ya": 0
    }
  },
  {
    "tdlinx_number": "5526830",
    "store_name": "SILVERSMITH HOTEL",
    "store_number": "UNKNOWN",
    "address": "10 S WABASH AVE",
    "city": "CHICAGO",
    "state": "IL",
    "postal_cd": "606032801",
    "phone_no": "3127956511",
    "latitude": 41.8819,
    "longitude": -87.6264,
    "last_update": 201512,
    "high_impact": "N",
    "unsold_account": "N",
    "premise_type": "ON PREMISE",
    "trade_classification": "LODGING",
    "planning_group": "REGIONAL",
    "store_rank_wine": {
      "rank": 1,
      "delta": 384.46,
      "depl_fytd": 38.1867,
      "depl_pts_fytd": 409.08,
      "depl_l12_mth_ty": 38.1867,
      "depl_pts_fytd_1ya": 24.62
    }
  },
  {
    "tdlinx_number": "1872517",
    "store_name": "PIZANOS PIZZA & PASTA",
    "store_number": "UNKNOWN",
    "address": "61 E MADISON ST",
    "city": "CHICAGO",
    "state": "IL",
    "postal_cd": "606033001",
    "phone_no": "3122361777",
    "latitude": 41.882,
    "longitude": -87.6256,
    "last_update": 201512,
    "high_impact": "N",
    "unsold_account": "N",
    "premise_type": "ON PREMISE",
    "trade_classification": "CASUAL DINING",
    "planning_group": "REGIONAL",
    "store_rank_wine": {
      "rank": 1,
      "delta": 1123.44,
      "depl_fytd": 182.82,
      "depl_pts_fytd": 3314.48,
      "depl_l12_mth_ty": 199.18,
      "depl_pts_fytd_1ya": 2191.04
    }
  },
  {
    "tdlinx_number": "2120645",
    "store_name": "TILTED KILT",
    "store_number": "UNKNOWN",
    "address": "17 S WABASH AVE",
    "city": "CHICAGO",
    "state": "IL",
    "postal_cd": "606033028",
    "phone_no": "8477727505",
    "latitude": 41.8818,
    "longitude": -87.626,
    "last_update": 201512,
    "high_impact": "N",
    "unsold_account": "N",
    "premise_type": "ON PREMISE",
    "trade_classification": "BAR/NIGHTCLUB",
    "planning_group": "OPSA",
    "store_rank_wine": {
      "rank": 3,
      "delta": -55,
      "depl_fytd": 1,
      "depl_pts_fytd": 11,
      "depl_l12_mth_ty": 1,
      "depl_pts_fytd_1ya": 66
    }
  },
  {
    "tdlinx_number": "3769708",
    "store_name": "RUDYS BAR & GRILL",
    "store_number": "UNKNOWN",
    "address": "69 E MADISON ST",
    "city": "CHICAGO",
    "state": "IL",
    "postal_cd": "606033001",
    "phone_no": "3123328111",
    "latitude": 41.882,
    "longitude": -87.6255,
    "last_update": 201512,
    "high_impact": "N",
    "unsold_account": "N",
    "premise_type": "ON PREMISE",
    "trade_classification": "BAR/NIGHTCLUB",
    "planning_group": "REGIONAL",
    "store_rank_wine": {
      "rank": 1,
      "delta": 709.06,
      "depl_fytd": 131.46,
      "depl_pts_fytd": 1594.28,
      "depl_l12_mth_ty": 155.63,
      "depl_pts_fytd_1ya": 885.22
    }
  },
  {
    "tdlinx_number": "3667228",
    "store_name": "FLAT TOP GRILL",
    "store_number": "UNKNOWN",
    "address": "30 S WABASH AVE",
    "city": "CHICAGO",
    "state": "IL",
    "postal_cd": "606032801",
    "phone_no": "3127268400",
    "latitude": 41.8817,
    "longitude": -87.6264,
    "last_update": 201512,
    "high_impact": "N",
    "unsold_account": "N",
    "premise_type": "ON PREMISE",
    "trade_classification": "CASUAL DINING",
    "planning_group": "REGIONAL",
    "store_rank_wine": {
      "rank": 3,
      "delta": -99,
      "depl_fytd": 0,
      "depl_pts_fytd": 0,
      "depl_l12_mth_ty": 2,
      "depl_pts_fytd_1ya": 99
    }
  },
  {
    "tdlinx_number": "1743629",
    "store_name": "7 ELEVEN",
    "store_number": "33354",
    "address": "29 E MADISON ST",
    "city": "CHICAGO",
    "state": "IL",
    "postal_cd": "606024404",
    "phone_no": "3123461170",
    "latitude": 41.8819,
    "longitude": -87.6273,
    "last_update": 201512,
    "high_impact": "N",
    "unsold_account": "N",
    "premise_type": "OFF PREMISE",
    "trade_classification": "CONVENIENCE STORE",
    "planning_group": "7 ELEVEN INC HQ",
    "store_rank_wine": {
      "rank": 3,
      "delta": -0.7008,
      "depl_fytd": 40.4999,
      "depl_pts_fytd": 192,
      "depl_l12_mth_ty": 45.0332,
      "depl_pts_fytd_1ya": 192.7
    }
  },
  {
    "tdlinx_number": "1598544",
    "store_name": "IN FIELDS",
    "store_number": "216",
    "address": "111 N STATE ST",
    "city": "CHICAGO",
    "state": "IL",
    "postal_cd": "606021659",
    "phone_no": "3127813192",
    "latitude": 41.8835,
    "longitude": -87.6276,
    "last_update": 201512,
    "high_impact": "N",
    "unsold_account": "N",
    "premise_type": "ON PREMISE",
    "trade_classification": "CASUAL DINING",
    "planning_group": "REGIONAL",
    "store_rank_wine": {
      "rank": 1,
      "delta": 9,
      "depl_fytd": 7,
      "depl_pts_fytd": 13,
      "depl_l12_mth_ty": 13,
      "depl_pts_fytd_1ya": 4
    }
  },
  {
    "tdlinx_number": "1746906",
    "store_name": "MACYS WINE SHOP",
    "store_number": "215",
    "address": "111 N STATE ST",
    "city": "CHICAGO",
    "state": "IL",
    "postal_cd": "606021659",
    "phone_no": "UNK",
    "latitude": 41.8835,
    "longitude": -87.6276,
    "last_update": 201512,
    "high_impact": "N",
    "unsold_account": "N",
    "premise_type": "OFF PREMISE",
    "trade_classification": "LIQUOR",
    "planning_group": "REGIONAL",
    "store_rank_wine": {
      "rank": 1,
      "delta": 183.94,
      "depl_fytd": 29.395,
      "depl_pts_fytd": 479.85,
      "depl_l12_mth_ty": 47.895,
      "depl_pts_fytd_1ya": 295.91
    }
  },
  {
    "tdlinx_number": "2019087",
    "store_name": "WALGREENS",
    "store_number": "9438",
    "address": "30 N MICHIGAN AVE",
    "city": "CHICAGO",
    "state": "IL",
    "postal_cd": "606023402",
    "phone_no": "3123323540",
    "latitude": 41.8824,
    "longitude": -87.6247,
    "last_update": 201512,
    "high_impact": "N",
    "unsold_account": "N",
    "premise_type": "OFF PREMISE",
    "trade_classification": "DRUG",
    "planning_group": "WALGREENS CO HQ",
    "store_rank_wine": {
      "rank": 2,
      "delta": 5.7846,
      "depl_fytd": 305.798,
      "depl_pts_fytd": 2583.45,
      "depl_l12_mth_ty": 344.63,
      "depl_pts_fytd_1ya": 2577.67
    }
  },
  {
    "tdlinx_number": "0572661",
    "store_name": "CITYTARGET",
    "store_number": "2799",
    "address": "1 S STATE ST",
    "city": "CHICAGO",
    "state": "IL",
    "postal_cd": "606032802",
    "phone_no": "13123463455",
    "latitude": 41.8819,
    "longitude": -87.6275,
    "last_update": 201512,
    "high_impact": "Y",
    "unsold_account": "N",
    "premise_type": "OFF PREMISE",
    "trade_classification": "MASS MERCHANDISER",
    "planning_group": "TARGET CORP",
    "store_rank_wine": {
      "rank": 1,
      "delta": 3685.56,
      "depl_fytd": 1588.67,
      "depl_pts_fytd": 16204.4,
      "depl_l12_mth_ty": 2048,
      "depl_pts_fytd_1ya": 12518.8
    }
  },
  {
    "tdlinx_number": "7396878",
    "store_name": "REMINGTONS",
    "store_number": "UNKNOWN",
    "address": "20 N MICHIGAN AVE",
    "city": "CHICAGO",
    "state": "IL",
    "postal_cd": "606024811",
    "phone_no": "UNK",
    "latitude": 41.8823,
    "longitude": -87.6246,
    "last_update": 201512,
    "high_impact": "N",
    "unsold_account": "N",
    "premise_type": "ON PREMISE",
    "trade_classification": "CASUAL DINING",
    "planning_group": "REGIONAL",
    "store_rank_wine": {
      "rank": 1,
      "delta": 608.719,
      "depl_fytd": 40.7866,
      "depl_pts_fytd": 608.719,
      "depl_l12_mth_ty": 40.7866,
      "depl_pts_fytd_1ya": 0
    }
  },
  {
    "tdlinx_number": "5031782",
    "store_name": "CHICAGO ATHLETIC ASSOCIATION",
    "store_number": "UNKNOWN",
    "address": "12 S MICHIGAN AVE",
    "city": "CHICAGO",
    "state": "IL",
    "postal_cd": "606033300",
    "phone_no": "3122367500",
    "latitude": 41.882,
    "longitude": -87.6246,
    "last_update": 201512,
    "high_impact": "N",
    "unsold_account": "N",
    "premise_type": "ON PREMISE",
    "trade_classification": "LODGING",
    "planning_group": "REGIONAL",
    "store_rank_wine": {
      "rank": 1,
      "delta": 1228.59,
      "depl_fytd": 56.9783,
      "depl_pts_fytd": 1228.59,
      "depl_l12_mth_ty": 56.9783,
      "depl_pts_fytd_1ya": 0
    }
  },
  {
    "tdlinx_number": "7400210",
    "store_name": "THE CHERRY CIRCLE ROOM",
    "store_number": "UNKNOWN",
    "address": "12 S MICHIGAN AVE",
    "city": "CHICAGO",
    "state": "IL",
    "postal_cd": "606033300",
    "phone_no": "UNK",
    "latitude": 41.882,
    "longitude": -87.6246,
    "last_update": 201512,
    "high_impact": "N",
    "unsold_account": "N",
    "premise_type": "ON PREMISE",
    "trade_classification": "CASUAL DINING",
    "planning_group": "REGIONAL",
    "store_rank_wine": {
      "rank": 1,
      "delta": 1.02,
      "depl_fytd": 0.17,
      "depl_pts_fytd": 1.02,
      "depl_l12_mth_ty": 0.17,
      "depl_pts_fytd_1ya": 0
    }
  },
  {
    "tdlinx_number": "2340483",
    "store_name": "HOT WOKS COOL SUSHI",
    "store_number": "UNKNOWN",
    "address": "30 S MICHIGAN AVE LBBY 1",
    "city": "CHICAGO",
    "state": "IL",
    "postal_cd": "606033207",
    "phone_no": "3123451234",
    "latitude": 41.8818,
    "longitude": -87.6246,
    "last_update": 201512,
    "high_impact": "N",
    "unsold_account": "N",
    "premise_type": "ON PREMISE",
    "trade_classification": "CASUAL DINING",
    "planning_group": "REGIONAL",
    "store_rank_wine": {
      "rank": 1,
      "delta": 92.8335,
      "depl_fytd": 4.7267,
      "depl_pts_fytd": 95.6335,
      "depl_l12_mth_ty": 8.7267,
      "depl_pts_fytd_1ya": 2.8
    }
  },
  {
    "tdlinx_number": "2174005",
    "store_name": "THE GAGE",
    "store_number": "UNKNOWN",
    "address": "24 S MICHIGAN AVE",
    "city": "CHICAGO",
    "state": "IL",
    "postal_cd": "606033301",
    "phone_no": "7733598959",
    "latitude": 41.8818,
    "longitude": -87.6246,
    "last_update": 201512,
    "high_impact": "N",
    "unsold_account": "N",
    "premise_type": "ON PREMISE",
    "trade_classification": "CASUAL DINING",
    "planning_group": "REGIONAL",
    "store_rank_wine": {
      "rank": 1,
      "delta": 132.453,
      "depl_fytd": 58.08,
      "depl_pts_fytd": 382.4,
      "depl_l12_mth_ty": 71.08,
      "depl_pts_fytd_1ya": 249.947
    }
  },
  {
    "tdlinx_number": "1579544",
    "store_name": "ATWOOD CAFE",
    "store_number": "UNKNOWN",
    "address": "1 W WASHINGTON ST",
    "city": "CHICAGO",
    "state": "IL",
    "postal_cd": "606021603",
    "phone_no": "3123681900",
    "latitude": 41.8831,
    "longitude": -87.6281,
    "last_update": 201512,
    "high_impact": "N",
    "unsold_account": "N",
    "premise_type": "ON PREMISE",
    "trade_classification": "FINE DINING",
    "planning_group": "KAFI THOMPSON",
    "store_rank_wine": {
      "rank": 3,
      "delta": -81.5761,
      "depl_fytd": 34.075,
      "depl_pts_fytd": 292.215,
      "depl_l12_mth_ty": 34.82,
      "depl_pts_fytd_1ya": 373.791
    }
  },
  {
    "tdlinx_number": "7443957",
    "store_name": "AMC THEATRE",
    "store_number": "UNKNOWN",
    "address": "108 N STATE ST STE 434",
    "city": "CHICAGO",
    "state": "IL",
    "postal_cd": "606021608",
    "phone_no": "3122614700",
    "latitude": 41.8835,
    "longitude": -87.6281,
    "last_update": 201512,
    "high_impact": "N",
    "unsold_account": "N",
    "premise_type": "ON PREMISE",
    "trade_classification": "RECREATION",
    "planning_group": "OPSA",
    "store_rank_wine": {
      "rank": 1,
      "delta": 635.646,
      "depl_fytd": 52.0793,
      "depl_pts_fytd": 635.646,
      "depl_l12_mth_ty": 52.0793,
      "depl_pts_fytd_1ya": 0
    }
  },
  {
    "tdlinx_number": "3828277",
    "store_name": "SIMPLY THALIA",
    "store_number": "UNKNOWN",
    "address": "108 N STATE ST",
    "city": "CHICAGO",
    "state": "IL",
    "postal_cd": "606021608",
    "phone_no": "UNK",
    "latitude": 41.8835,
    "longitude": -87.6281,
    "last_update": 201512,
    "high_impact": "N",
    "unsold_account": "N",
    "premise_type": "ON PREMISE",
    "trade_classification": "CASUAL DINING",
    "planning_group": "REGIONAL",
    "store_rank_wine": {
      "rank": 1,
      "delta": 56,
      "depl_fytd": 56,
      "depl_pts_fytd": 56,
      "depl_l12_mth_ty": 56,
      "depl_pts_fytd_1ya": 0
    }
  },
  {
    "tdlinx_number": "5029501",
    "store_name": "UNIVERSITY CLUB OF CHICAGO",
    "store_number": "UNKNOWN",
    "address": "76 E MONROE ST",
    "city": "CHICAGO",
    "state": "IL",
    "postal_cd": "606032703",
    "phone_no": "3126962207",
    "latitude": 41.881,
    "longitude": -87.625,
    "last_update": 201512,
    "high_impact": "N",
    "unsold_account": "N",
    "premise_type": "ON PREMISE",
    "trade_classification": "RECREATION",
    "planning_group": "REGIONAL",
    "store_rank_wine": {
      "rank": 3,
      "delta": -507.25,
      "depl_fytd": 169.32,
      "depl_pts_fytd": 2396.08,
      "depl_l12_mth_ty": 208.32,
      "depl_pts_fytd_1ya": 2903.33
    }
  },
  {
    "tdlinx_number": "3834696",
    "store_name": "ACANTO",
    "store_number": "UNKNOWN",
    "address": "18 S MICHIGAN AVE",
    "city": "CHICAGO",
    "state": "IL",
    "postal_cd": "606033200",
    "phone_no": "3123722964",
    "latitude": 41.8813,
    "longitude": -87.6246,
    "last_update": 201512,
    "high_impact": "N",
    "unsold_account": "N",
    "premise_type": "ON PREMISE",
    "trade_classification": "CASUAL DINING",
    "planning_group": "REGIONAL",
    "store_rank_wine": {
      "rank": 1,
      "delta": 85.2444,
      "depl_fytd": 20.5244,
      "depl_pts_fytd": 85.2444,
      "depl_l12_mth_ty": 20.5244,
      "depl_pts_fytd_1ya": 0
    }
  },
  {
    "tdlinx_number": "1765905",
    "store_name": "WALGREENS",
    "store_number": "7054",
    "address": "15 W WASHINGTON ST",
    "city": "CHICAGO",
    "state": "IL",
    "postal_cd": "606021603",
    "phone_no": "3123320216",
    "latitude": 41.8831,
    "longitude": -87.6284,
    "last_update": 201512,
    "high_impact": "N",
    "unsold_account": "N",
    "premise_type": "OFF PREMISE",
    "trade_classification": "DRUG",
    "planning_group": "WALGREENS CO HQ",
    "store_rank_wine": {
      "rank": 3,
      "delta": -318.314,
      "depl_fytd": 274.833,
      "depl_pts_fytd": 2273.17,
      "depl_l12_mth_ty": 326.666,
      "depl_pts_fytd_1ya": 2591.48
    }
  },
  {
    "tdlinx_number": "1605681",
    "store_name": "CVS PHARMACY",
    "store_number": "3674",
    "address": "105 S WABASH AVE",
    "city": "CHICAGO",
    "state": "IL",
    "postal_cd": "60603",
    "phone_no": "6305329716",
    "latitude": 41.8806,
    "longitude": -87.626,
    "last_update": 201512,
    "high_impact": "N",
    "unsold_account": "N",
    "premise_type": "OFF PREMISE",
    "trade_classification": "DRUG",
    "planning_group": "CVS/CAREMARK CORP",
    "store_rank_wine": {
      "rank": 3,
      "delta": -1044.33,
      "depl_fytd": 359.001,
      "depl_pts_fytd": 2781.67,
      "depl_l12_mth_ty": 401.168,
      "depl_pts_fytd_1ya": 3826
    }
  },
  {
    "tdlinx_number": "1849427",
    "store_name": "THE PARK GRILL",
    "store_number": "UNKNOWN",
    "address": "11 N MICHIGAN AVE",
    "city": "CHICAGO",
    "state": "IL",
    "postal_cd": "606024812",
    "phone_no": "3124461206",
    "latitude": 41.8824,
    "longitude": -87.624,
    "last_update": 201512,
    "high_impact": "N",
    "unsold_account": "N",
    "premise_type": "ON PREMISE",
    "trade_classification": "CASUAL DINING",
    "planning_group": "REGIONAL",
    "store_rank_wine": {
      "rank": 3,
      "delta": -156.995,
      "depl_fytd": 48.315,
      "depl_pts_fytd": 66.04,
      "depl_l12_mth_ty": 53.555,
      "depl_pts_fytd_1ya": 223.035
    }
  },
  {
    "tdlinx_number": "1653061",
    "store_name": "POTTERS BAR PALMER HOUSE",
    "store_number": "UNKNOWN",
    "address": "124 S WABASH AVE",
    "city": "CHICAGO",
    "state": "IL",
    "postal_cd": "606035604",
    "phone_no": "3129177399",
    "latitude": 41.8805,
    "longitude": -87.6263,
    "last_update": 201512,
    "high_impact": "N",
    "unsold_account": "N",
    "premise_type": "ON PREMISE",
    "trade_classification": "CASUAL DINING",
    "planning_group": "REGIONAL",
    "store_rank_wine": {
      "rank": 1,
      "delta": 124.735,
      "depl_fytd": 11.19,
      "depl_pts_fytd": 143.935,
      "depl_l12_mth_ty": 13.19,
      "depl_pts_fytd_1ya": 19.2
    }
  },
  {
    "tdlinx_number": "2000758",
    "store_name": "LOCKWOOD RESTAURANT",
    "store_number": "UNKNOWN",
    "address": "17 E MONROE ST",
    "city": "CHICAGO",
    "state": "IL",
    "postal_cd": "606035608",
    "phone_no": "3127267500",
    "latitude": 41.8806,
    "longitude": -87.6271,
    "last_update": 201512,
    "high_impact": "N",
    "unsold_account": "N",
    "premise_type": "ON PREMISE",
    "trade_classification": "FINE DINING",
    "planning_group": "OPSA",
    "store_rank_wine": {
      "rank": 3,
      "delta": -312,
      "depl_fytd": 4,
      "depl_pts_fytd": 40,
      "depl_l12_mth_ty": 12,
      "depl_pts_fytd_1ya": 352
    }
  },
  {
    "tdlinx_number": "5001772",
    "store_name": "THE PALMER HOUSE",
    "store_number": "UNKNOWN",
    "address": "17 E MONROE ST",
    "city": "CHICAGO",
    "state": "IL",
    "postal_cd": "606035608",
    "phone_no": "3127267500",
    "latitude": 41.8806,
    "longitude": -87.6271,
    "last_update": 201512,
    "high_impact": "N",
    "unsold_account": "N",
    "premise_type": "ON PREMISE",
    "trade_classification": "LODGING",
    "planning_group": "OPSA",
    "store_rank_wine": {
      "rank": 1,
      "delta": 579.89,
      "depl_fytd": 289.746,
      "depl_pts_fytd": 3527.75,
      "depl_l12_mth_ty": 309.912,
      "depl_pts_fytd_1ya": 2947.86
    }
  },
  {
    "tdlinx_number": "0447684",
    "store_name": "WALGREENS",
    "store_number": "15196",
    "address": "151 N STATE ST",
    "city": "CHICAGO",
    "state": "IL",
    "postal_cd": "606013601",
    "phone_no": "3128634249",
    "latitude": 41.8847,
    "longitude": -87.6277,
    "last_update": 201512,
    "high_impact": "Y",
    "unsold_account": "N",
    "premise_type": "OFF PREMISE",
    "trade_classification": "DRUG",
    "planning_group": "WALGREENS CO HQ",
    "store_rank_wine": {
      "rank": 3,
      "delta": -195.879,
      "depl_fytd": 1106.09,
      "depl_pts_fytd": 10113.5,
      "depl_l12_mth_ty": 1244.34,
      "depl_pts_fytd_1ya": 10309.4
    }
  },
  {
    "tdlinx_number": "5013073",
    "store_name": "MILLERS PUB",
    "store_number": "UNKNOWN",
    "address": "134 S WABASH AVE",
    "city": "CHICAGO",
    "state": "IL",
    "postal_cd": "606035604",
    "phone_no": "3126455377",
    "latitude": 41.8804,
    "longitude": -87.6263,
    "last_update": 201512,
    "high_impact": "N",
    "unsold_account": "N",
    "premise_type": "ON PREMISE",
    "trade_classification": "CASUAL DINING",
    "planning_group": "REGIONAL",
    "store_rank_wine": {
      "rank": 3,
      "delta": -1280.64,
      "depl_fytd": 2,
      "depl_pts_fytd": 71.1067,
      "depl_l12_mth_ty": 2,
      "depl_pts_fytd_1ya": 1351.75
    }
  },
  {
    "tdlinx_number": "2118484",
    "store_name": "ELEPHANT & CASTLE",
    "store_number": "UNKNOWN",
    "address": "185 N WABASH AVE",
    "city": "CHICAGO",
    "state": "IL",
    "postal_cd": "606013625",
    "phone_no": "3123451710",
    "latitude": 41.8854,
    "longitude": -87.6261,
    "last_update": 201512,
    "high_impact": "N",
    "unsold_account": "N",
    "premise_type": "ON PREMISE",
    "trade_classification": "CASUAL DINING",
    "planning_group": "REGIONAL",
    "store_rank_wine": {
      "rank": 3,
      "delta": -2093.05,
      "depl_fytd": 45,
      "depl_pts_fytd": 478,
      "depl_l12_mth_ty": 55,
      "depl_pts_fytd_1ya": 2571.05
    }
  },
  {
    "tdlinx_number": "3538093",
    "store_name": "M BAR BREWS & BITES",
    "store_number": "UNKNOWN",
    "address": "151 N MICHIGAN AVE STE C16",
    "city": "CHICAGO",
    "state": "IL",
    "postal_cd": "606017506",
    "phone_no": "3212952323",
    "latitude": 41.8846,
    "longitude": -87.6242,
    "last_update": 201512,
    "high_impact": "N",
    "unsold_account": "N",
    "premise_type": "ON PREMISE",
    "trade_classification": "BAR/NIGHTCLUB",
    "planning_group": "REGIONAL",
    "store_rank_wine": {
      "rank": 3,
      "delta": -58.0398,
      "depl_fytd": 4.5467,
      "depl_pts_fytd": 36.3602,
      "depl_l12_mth_ty": 4.5467,
      "depl_pts_fytd_1ya": 94.4
    }
  },
  {
    "tdlinx_number": "5020371",
    "store_name": "SCHOOL OF THE ART INSTITUTE BALL",
    "store_number": "UNKNOWN",
    "address": "112 S MICHIGAN AVE",
    "city": "CHICAGO",
    "state": "IL",
    "postal_cd": "606036105",
    "phone_no": "3124433600",
    "latitude": 41.8806,
    "longitude": -87.6246,
    "last_update": 201512,
    "high_impact": "N",
    "unsold_account": "N",
    "premise_type": "ON PREMISE",
    "trade_classification": "CATERER",
    "planning_group": "REGIONAL",
    "store_rank_wine": {
      "rank": 3,
      "delta": -468.999,
      "depl_fytd": 5.5,
      "depl_pts_fytd": 83.5,
      "depl_l12_mth_ty": 7,
      "depl_pts_fytd_1ya": 552.499
    }
  },
  {
    "tdlinx_number": "1628847",
    "store_name": "7 ELEVEN",
    "store_number": "33139",
    "address": "174 N MICHIGAN AVE",
    "city": "CHICAGO",
    "state": "IL",
    "postal_cd": "606017554",
    "phone_no": "3122360188",
    "latitude": 41.8851,
    "longitude": -87.6247,
    "last_update": 201512,
    "high_impact": "N",
    "unsold_account": "N",
    "premise_type": "OFF PREMISE",
    "trade_classification": "CONVENIENCE STORE",
    "planning_group": "7 ELEVEN INC HQ",
    "store_rank_wine": {
      "rank": 1,
      "delta": 84.4226,
      "depl_fytd": 27.816,
      "depl_pts_fytd": 199.752,
      "depl_l12_mth_ty": 29.816,
      "depl_pts_fytd_1ya": 115.33
    }
  },
  {
    "tdlinx_number": "2577303",
    "store_name": "NOODLES & COMPANY",
    "store_number": "629",
    "address": "180 N MICHIGAN AVE",
    "city": "CHICAGO",
    "state": "IL",
    "postal_cd": "606017401",
    "phone_no": "13129817110",
    "latitude": 41.8851,
    "longitude": -87.6247,
    "last_update": 201512,
    "high_impact": "N",
    "unsold_account": "N",
    "premise_type": "ON PREMISE",
    "trade_classification": "CASUAL DINING",
    "planning_group": "KAFI THOMPSON",
    "store_rank_wine": {
      "rank": 1,
      "delta": 78,
      "depl_fytd": 90.3333,
      "depl_pts_fytd": 283.667,
      "depl_l12_mth_ty": 105.667,
      "depl_pts_fytd_1ya": 205.667
    }
  },
  {
    "tdlinx_number": "5057028",
    "store_name": "LA SALLE BANK THEATRE",
    "store_number": "UNKNOWN",
    "address": "18 W MONROE ST",
    "city": "CHICAGO",
    "state": "IL",
    "postal_cd": "606032400",
    "phone_no": "3122871534",
    "latitude": 41.8809,
    "longitude": -87.6282,
    "last_update": 201512,
    "high_impact": "N",
    "unsold_account": "N",
    "premise_type": "ON PREMISE",
    "trade_classification": "CATERER",
    "planning_group": "REGIONAL",
    "store_rank_wine": {
      "rank": 3,
      "delta": -58.24,
      "depl_fytd": 0.08,
      "depl_pts_fytd": 1.76,
      "depl_l12_mth_ty": 0.08,
      "depl_pts_fytd_1ya": 60
    }
  },
  {
    "tdlinx_number": "7295708",
    "store_name": "WALGREENS",
    "store_number": "15667",
    "address": "122 S MICHIGAN AVE",
    "city": "CHICAGO",
    "state": "IL",
    "postal_cd": "606036191",
    "phone_no": "UNK0",
    "latitude": 41.8805,
    "longitude": -87.6246,
    "last_update": 201512,
    "high_impact": "N",
    "unsold_account": "N",
    "premise_type": "OFF PREMISE",
    "trade_classification": "DRUG",
    "planning_group": "WALGREENS CO HQ",
    "store_rank_wine": {
      "rank": 1,
      "delta": 1752.44,
      "depl_fytd": 348.82,
      "depl_pts_fytd": 2958.75,
      "depl_l12_mth_ty": 383.819,
      "depl_pts_fytd_1ya": 1206.32
    }
  },
  {
    "tdlinx_number": "7368928",
    "store_name": "SEVEN LIONS",
    "store_number": "UNKNOWN",
    "address": "130 S MICHIGAN AVE",
    "city": "CHICAGO",
    "state": "IL",
    "postal_cd": "606036040",
    "phone_no": "UNK",
    "latitude": 41.8805,
    "longitude": -87.6246,
    "last_update": 201512,
    "high_impact": "N",
    "unsold_account": "N",
    "premise_type": "ON PREMISE",
    "trade_classification": "CASUAL DINING",
    "planning_group": "REGIONAL",
    "store_rank_wine": {
      "rank": 1,
      "delta": 39.56,
      "depl_fytd": 7.64,
      "depl_pts_fytd": 39.56,
      "depl_l12_mth_ty": 7.64,
      "depl_pts_fytd_1ya": 0
    }
  },
  {
    "tdlinx_number": "5025094",
    "store_name": "CHICAGO THEATRE",
    "store_number": "UNKNOWN",
    "address": "175 N STATE ST",
    "city": "CHICAGO",
    "state": "IL",
    "postal_cd": "606013623",
    "phone_no": "3124626323",
    "latitude": 41.8853,
    "longitude": -87.6277,
    "last_update": 201512,
    "high_impact": "N",
    "unsold_account": "N",
    "premise_type": "ON PREMISE",
    "trade_classification": "RECREATION",
    "planning_group": "REGIONAL",
    "store_rank_wine": {
      "rank": 3,
      "delta": -278.259,
      "depl_fytd": 448.805,
      "depl_pts_fytd": 1346.41,
      "depl_l12_mth_ty": 498.672,
      "depl_pts_fytd_1ya": 1624.67
    }
  },
  {
    "tdlinx_number": "5002672",
    "store_name": "BEEF & BRANDY RESTAURANT",
    "store_number": "UNKNOWN",
    "address": "127 S STATE ST",
    "city": "CHICAGO",
    "state": "IL",
    "postal_cd": "606035606",
    "phone_no": "3123723451",
    "latitude": 41.8802,
    "longitude": -87.6275,
    "last_update": 201512,
    "high_impact": "N",
    "unsold_account": "N",
    "premise_type": "ON PREMISE",
    "trade_classification": "CASUAL DINING",
    "planning_group": "REGIONAL",
    "store_rank_wine": {
      "rank": 3,
      "delta": -491,
      "depl_fytd": 107,
      "depl_pts_fytd": 514,
      "depl_l12_mth_ty": 148,
      "depl_pts_fytd_1ya": 1005
    }
  },
  {
    "tdlinx_number": "2227693",
    "store_name": "ROSEBUD",
    "store_number": "UNKNOWN",
    "address": "1 S DEARBORN ST",
    "city": "CHICAGO",
    "state": "IL",
    "postal_cd": "606032302",
    "phone_no": "3126499344",
    "latitude": 41.8819,
    "longitude": -87.6292,
    "last_update": 201512,
    "high_impact": "N",
    "unsold_account": "N",
    "premise_type": "ON PREMISE",
    "trade_classification": "FINE DINING",
    "planning_group": "REGIONAL",
    "store_rank_wine": {
      "rank": 3,
      "delta": -194.833,
      "depl_fytd": 161.025,
      "depl_pts_fytd": 3714.87,
      "depl_l12_mth_ty": 186.775,
      "depl_pts_fytd_1ya": 3909.7
    }
  },
  {
    "tdlinx_number": "2218412",
    "store_name": "FOOD FOR THOUGHT",
    "store_number": "UNKNOWN",
    "address": "1 S DEARBORN ST",
    "city": "CHICAGO",
    "state": "IL",
    "postal_cd": "606032302",
    "phone_no": "3125070582",
    "latitude": 41.8819,
    "longitude": -87.6292,
    "last_update": 201512,
    "high_impact": "N",
    "unsold_account": "N",
    "premise_type": "ON PREMISE",
    "trade_classification": "CATERER",
    "planning_group": "REGIONAL",
    "store_rank_wine": {
      "rank": 1,
      "delta": 44,
      "depl_fytd": 29,
      "depl_pts_fytd": 319,
      "depl_l12_mth_ty": 29,
      "depl_pts_fytd_1ya": 275
    }
  },
  {
    "tdlinx_number": "2228178",
    "store_name": "TAVERN AT THE PARK",
    "store_number": "UNKNOWN",
    "address": "130 E RANDOLPH ST",
    "city": "CHICAGO",
    "state": "IL",
    "postal_cd": "606016207",
    "phone_no": "3125520070",
    "latitude": 41.8846,
    "longitude": -87.6236,
    "last_update": 201512,
    "high_impact": "N",
    "unsold_account": "N",
    "premise_type": "ON PREMISE",
    "trade_classification": "CASUAL DINING",
    "planning_group": "REGIONAL",
    "store_rank_wine": {
      "rank": 3,
      "delta": -148.628,
      "depl_fytd": 119,
      "depl_pts_fytd": 1061.33,
      "depl_l12_mth_ty": 139.667,
      "depl_pts_fytd_1ya": 1209.96
    }
  },
  {
    "tdlinx_number": "1670523",
    "store_name": "GIORDANOS",
    "store_number": "UNKNOWN",
    "address": "130 E RANDOLPH ST",
    "city": "CHICAGO",
    "state": "IL",
    "postal_cd": "606016207",
    "phone_no": "3126161200",
    "latitude": 41.8846,
    "longitude": -87.6236,
    "last_update": 201512,
    "high_impact": "N",
    "unsold_account": "N",
    "premise_type": "ON PREMISE",
    "trade_classification": "CASUAL DINING",
    "planning_group": "REGIONAL",
    "store_rank_wine": {
      "rank": 3,
      "delta": -194,
      "depl_fytd": 0,
      "depl_pts_fytd": 0,
      "depl_l12_mth_ty": 0,
      "depl_pts_fytd_1ya": 194
    }
  },
  {
    "tdlinx_number": "2209077",
    "store_name": "CROWN IMPORTS",
    "store_number": "UNKNOWN",
    "address": "1 S DEARBORN ST STE 1700",
    "city": "CHICAGO",
    "state": "IL",
    "postal_cd": "606032308",
    "phone_no": "3128739200",
    "latitude": 41.882,
    "longitude": -87.6294,
    "last_update": 201512,
    "high_impact": "N",
    "unsold_account": "N",
    "premise_type": "NON RETAIL",
    "trade_classification": "DISTRIBUTOR/SUB-DISTRIBUTOR",
    "planning_group": "REGIONAL",
    "store_rank_wine": {
      "rank": 1,
      "delta": 896.825,
      "depl_fytd": 59.9997,
      "depl_pts_fytd": 1405.33,
      "depl_l12_mth_ty": 85.833,
      "depl_pts_fytd_1ya": 508.5
    }
  },
  {
    "tdlinx_number": "5027057",
    "store_name": "TRATTORIA TEN",
    "store_number": "UNKNOWN",
    "address": "10 N DEARBORN ST",
    "city": "CHICAGO",
    "state": "IL",
    "postal_cd": "606024276",
    "phone_no": "3129841718",
    "latitude": 41.8822,
    "longitude": -87.6296,
    "last_update": 201512,
    "high_impact": "N",
    "unsold_account": "N",
    "premise_type": "ON PREMISE",
    "trade_classification": "FINE DINING",
    "planning_group": "REGIONAL",
    "store_rank_wine": {
      "rank": 3,
      "delta": -697.559,
      "depl_fytd": 45.0467,
      "depl_pts_fytd": 653.5,
      "depl_l12_mth_ty": 52.0441,
      "depl_pts_fytd_1ya": 1351.06
    }
  },
  {
    "tdlinx_number": "7328184",
    "store_name": "CLIENT DINING ROOM",
    "store_number": "UNKNOWN",
    "address": "10 S DEARBORN ST",
    "city": "CHICAGO",
    "state": "IL",
    "postal_cd": "606032300",
    "phone_no": "13127328420",
    "latitude": 41.8818,
    "longitude": -87.6296,
    "last_update": 201512,
    "high_impact": "N",
    "unsold_account": "N",
    "premise_type": "ON PREMISE",
    "trade_classification": "CASUAL DINING",
    "planning_group": "REGIONAL",
    "store_rank_wine": {
      "rank": 3,
      "delta": -201.688,
      "depl_fytd": 52.2022,
      "depl_pts_fytd": 639.002,
      "depl_l12_mth_ty": 70.2022,
      "depl_pts_fytd_1ya": 840.69
    }
  },
  {
    "tdlinx_number": "5027737",
    "store_name": "THE GRILLROOM",
    "store_number": "416",
    "address": "33 W MONROE ST",
    "city": "CHICAGO",
    "state": "IL",
    "postal_cd": "606035300",
    "phone_no": "3129600000",
    "latitude": 41.8806,
    "longitude": -87.629,
    "last_update": 201512,
    "high_impact": "N",
    "unsold_account": "N",
    "premise_type": "ON PREMISE",
    "trade_classification": "CASUAL DINING",
    "planning_group": "REGIONAL",
    "store_rank_wine": {
      "rank": 1,
      "delta": 724.729,
      "depl_fytd": 302.872,
      "depl_pts_fytd": 3960.77,
      "depl_l12_mth_ty": 351.998,
      "depl_pts_fytd_1ya": 3236.04
    }
  },
  {
    "tdlinx_number": "5529325",
    "store_name": "PETTERINOS",
    "store_number": "139",
    "address": "150 N DEARBORN ST",
    "city": "CHICAGO",
    "state": "IL",
    "postal_cd": "606013205",
    "phone_no": "3124220150",
    "latitude": 41.8846,
    "longitude": -87.6297,
    "last_update": 201512,
    "high_impact": "N",
    "unsold_account": "N",
    "premise_type": "ON PREMISE",
    "trade_classification": "CASUAL DINING",
    "planning_group": "REGIONAL",
    "store_rank_wine": {
      "rank": 3,
      "delta": -237.79,
      "depl_fytd": 24.745,
      "depl_pts_fytd": 117.97,
      "depl_l12_mth_ty": 32.245,
      "depl_pts_fytd_1ya": 355.76
    }
  },
  {
    "tdlinx_number": "5024553",
    "store_name": "ROSEBUD",
    "store_number": "UNKNOWN",
    "address": "70 W MADISON ST",
    "city": "CHICAGO",
    "state": "IL",
    "postal_cd": "606024252",
    "phone_no": "3123329500",
    "latitude": 41.8821,
    "longitude": -87.6301,
    "last_update": 201512,
    "high_impact": "N",
    "unsold_account": "N",
    "premise_type": "ON PREMISE",
    "trade_classification": "FINE DINING",
    "planning_group": "REGIONAL",
    "store_rank_wine": {
      "rank": 1,
      "delta": 560.802,
      "depl_fytd": 111.673,
      "depl_pts_fytd": 1910.14,
      "depl_l12_mth_ty": 127.676,
      "depl_pts_fytd_1ya": 1349.34
    }
  },
  {
    "tdlinx_number": "1578179",
    "store_name": "GOODMAN THEATRE",
    "store_number": "UNKNOWN",
    "address": "170 N DEARBORN ST",
    "city": "CHICAGO",
    "state": "IL",
    "postal_cd": "606013205",
    "phone_no": "3124433818",
    "latitude": 41.8849,
    "longitude": -87.6297,
    "last_update": 201512,
    "high_impact": "N",
    "unsold_account": "N",
    "premise_type": "ON PREMISE",
    "trade_classification": "RECREATION",
    "planning_group": "REGIONAL",
    "store_rank_wine": {
      "rank": 3,
      "delta": -59.9996,
      "depl_fytd": 41.6666,
      "depl_pts_fytd": 90,
      "depl_l12_mth_ty": 41.6666,
      "depl_pts_fytd_1ya": 150
    }
  },
  {
    "tdlinx_number": "5009354",
    "store_name": "LA CANTINA",
    "store_number": "UNKNOWN",
    "address": "71 W MONROE ST FL 1",
    "city": "CHICAGO",
    "state": "IL",
    "postal_cd": "606034910",
    "phone_no": "3123327005",
    "latitude": 41.8806,
    "longitude": -87.63,
    "last_update": 201512,
    "high_impact": "N",
    "unsold_account": "N",
    "premise_type": "ON PREMISE",
    "trade_classification": "CASUAL DINING",
    "planning_group": "REGIONAL",
    "store_rank_wine": {
      "rank": 1,
      "delta": 46.555,
      "depl_fytd": 62.4948,
      "depl_pts_fytd": 595.969,
      "depl_l12_mth_ty": 66.9922,
      "depl_pts_fytd_1ya": 549.414
    }
  },
  {
    "tdlinx_number": "1909561",
    "store_name": "MARKET THYME",
    "store_number": "UNKNOWN",
    "address": "200 E RANDOLPH ST",
    "city": "CHICAGO",
    "state": "IL",
    "postal_cd": "606016436",
    "phone_no": "3128190347",
    "latitude": 41.8846,
    "longitude": -87.6221,
    "last_update": 201512,
    "high_impact": "N",
    "unsold_account": "N",
    "premise_type": "ON PREMISE",
    "trade_classification": "CASUAL DINING",
    "planning_group": "REGIONAL",
    "store_rank_wine": {
      "rank": 1,
      "delta": 18.01,
      "depl_fytd": 1.58,
      "depl_pts_fytd": 26.64,
      "depl_l12_mth_ty": 1.58,
      "depl_pts_fytd_1ya": 8.63
    }
  },
  {
    "tdlinx_number": "5023856",
    "store_name": "MID AMERICA CLUB",
    "store_number": "2202",
    "address": "200 E RANDOLPH ST STE 8000",
    "city": "CHICAGO",
    "state": "IL",
    "postal_cd": "606017705",
    "phone_no": "3128611100",
    "latitude": 41.8846,
    "longitude": -87.6221,
    "last_update": 201512,
    "high_impact": "N",
    "unsold_account": "N",
    "premise_type": "ON PREMISE",
    "trade_classification": "RECREATION",
    "planning_group": "OPSA",
    "store_rank_wine": {
      "rank": 1,
      "delta": 177.98,
      "depl_fytd": 260.97,
      "depl_pts_fytd": 1607.02,
      "depl_l12_mth_ty": 283.863,
      "depl_pts_fytd_1ya": 1429.04
    }
  },
  {
    "tdlinx_number": "1991799",
    "store_name": "SOPRAFFINA MARKET CAFFE",
    "store_number": "UNKNOWN",
    "address": "200 E RANDOLPH ST",
    "city": "CHICAGO",
    "state": "IL",
    "postal_cd": "606016436",
    "phone_no": "13122284361",
    "latitude": 41.8846,
    "longitude": -87.6221,
    "last_update": 201512,
    "high_impact": "N",
    "unsold_account": "N",
    "premise_type": "ON PREMISE",
    "trade_classification": "CASUAL DINING",
    "planning_group": "REGIONAL",
    "store_rank_wine": {
      "rank": 3,
      "delta": -466.3,
      "depl_fytd": 0,
      "depl_pts_fytd": 0,
      "depl_l12_mth_ty": 0,
      "depl_pts_fytd_1ya": 466.3
    }
  },
  {
    "tdlinx_number": "0982927",
    "store_name": "WALGREENS",
    "store_number": "5387",
    "address": "79 W MONROE ST",
    "city": "CHICAGO",
    "state": "IL",
    "postal_cd": "606034901",
    "phone_no": "3123465727",
    "latitude": 41.8806,
    "longitude": -87.6302,
    "last_update": 201512,
    "high_impact": "N",
    "unsold_account": "N",
    "premise_type": "OFF PREMISE",
    "trade_classification": "DRUG",
    "planning_group": "WALGREENS CO HQ",
    "store_rank_wine": {
      "rank": 1,
      "delta": 636.669,
      "depl_fytd": 267.001,
      "depl_pts_fytd": 2205,
      "depl_l12_mth_ty": 309.334,
      "depl_pts_fytd_1ya": 1568.33
    }
  },
  {
    "tdlinx_number": "7017709",
    "store_name": "NOODLES & COMPANY",
    "store_number": "648",
    "address": "47 S CLARK ST",
    "city": "CHICAGO",
    "state": "IL",
    "postal_cd": "606032001",
    "phone_no": "13122631927",
    "latitude": 41.8812,
    "longitude": -87.6306,
    "last_update": 201512,
    "high_impact": "N",
    "unsold_account": "N",
    "premise_type": "ON PREMISE",
    "trade_classification": "CASUAL DINING",
    "planning_group": "KAFI THOMPSON",
    "store_rank_wine": {
      "rank": 1,
      "delta": 97.25,
      "depl_fytd": 86,
      "depl_pts_fytd": 198,
      "depl_l12_mth_ty": 102,
      "depl_pts_fytd_1ya": 100.75
    }
  },
  {
    "tdlinx_number": "5002694",
    "store_name": "MAXIMS RESTAURANT",
    "store_number": "UNKNOWN",
    "address": "20 N CLARK ST",
    "city": "CHICAGO",
    "state": "IL",
    "postal_cd": "606024109",
    "phone_no": "3122367717",
    "latitude": 41.8825,
    "longitude": -87.6311,
    "last_update": 201512,
    "high_impact": "N",
    "unsold_account": "N",
    "premise_type": "ON PREMISE",
    "trade_classification": "CASUAL DINING",
    "planning_group": "REGIONAL",
    "store_rank_wine": {
      "rank": 3,
      "delta": -28.1305,
      "depl_fytd": 16.7834,
      "depl_pts_fytd": 54.0437,
      "depl_l12_mth_ty": 22.6634,
      "depl_pts_fytd_1ya": 82.1742
    }
  },
  {
    "tdlinx_number": "7393827",
    "store_name": "COCHON VOLANT",
    "store_number": "UNKNOWN",
    "address": "100 W MONROE ST",
    "city": "CHICAGO",
    "state": "IL",
    "postal_cd": "606031967",
    "phone_no": "3122361234",
    "latitude": 41.8808,
    "longitude": -87.631,
    "last_update": 201512,
    "high_impact": "N",
    "unsold_account": "N",
    "premise_type": "ON PREMISE",
    "trade_classification": "CASUAL DINING",
    "planning_group": "REGIONAL",
    "store_rank_wine": {
      "rank": 1,
      "delta": 190.945,
      "depl_fytd": 8.125,
      "depl_pts_fytd": 190.945,
      "depl_l12_mth_ty": 8.125,
      "depl_pts_fytd_1ya": 0
    }
  },
  {
    "tdlinx_number": "7328665",
    "store_name": "WALGREENS",
    "store_number": "16085",
    "address": "100 W RANDOLPH ST",
    "city": "CHICAGO",
    "state": "IL",
    "postal_cd": "606013218",
    "phone_no": "3125253984",
    "latitude": 41.8846,
    "longitude": -87.6311,
    "last_update": 201512,
    "high_impact": "N",
    "unsold_account": "N",
    "premise_type": "OFF PREMISE",
    "trade_classification": "DRUG",
    "planning_group": "WALGREENS CO HQ",
    "store_rank_wine": {
      "rank": 1,
      "delta": 1408.39,
      "depl_fytd": 165.481,
      "depl_pts_fytd": 1408.39,
      "depl_l12_mth_ty": 228.812,
      "depl_pts_fytd_1ya": 0
    }
  },
  {
    "tdlinx_number": "1869449",
    "store_name": "WALGREENS",
    "store_number": "9001",
    "address": "191 N CLARK ST",
    "city": "CHICAGO",
    "state": "IL",
    "postal_cd": "606016232",
    "phone_no": "3126340152",
    "latitude": 41.8855,
    "longitude": -87.6308,
    "last_update": 201512,
    "high_impact": "N",
    "unsold_account": "N",
    "premise_type": "OFF PREMISE",
    "trade_classification": "DRUG",
    "planning_group": "WALGREENS CO HQ",
    "store_rank_wine": {
      "rank": 2,
      "delta": 51.3355,
      "depl_fytd": 251.667,
      "depl_pts_fytd": 2142.34,
      "depl_l12_mth_ty": 305.667,
      "depl_pts_fytd_1ya": 2091
    }
  },
  {
    "tdlinx_number": "2716566",
    "store_name": "ARAMARK HARRIS BANK",
    "store_number": "1525",
    "address": "111 W MONROE ST",
    "city": "CHICAGO",
    "state": "IL",
    "postal_cd": "606034096",
    "phone_no": "13122936006",
    "latitude": 41.8807,
    "longitude": -87.6311,
    "last_update": 201512,
    "high_impact": "N",
    "unsold_account": "N",
    "premise_type": "ON PREMISE",
    "trade_classification": "CATERER",
    "planning_group": "OPSA",
    "store_rank_wine": {
      "rank": 3,
      "delta": -297.32,
      "depl_fytd": 0,
      "depl_pts_fytd": 0,
      "depl_l12_mth_ty": 0,
      "depl_pts_fytd_1ya": 297.32
    }
  }
]